{
  "113": {
    "type": "FeatureCollection",
    "features": [
      {
        "type": "Feature",
        "properties": {
          "name": "Tchogha Zanbil",
          "ref": "113",
          "parent_id": "113"
        },
        "geometry": {
          "type": "Point",
          "coordinates": [
            48.522118,
            32.00857
          ]
        }
      }
    ]
  },
  "114": {
    "type": "FeatureCollection",
    "features": [
      {
        "type": "Feature",
        "properties": {
          "name": "Persepolis",
          "ref": "114",
          "parent_id": "114"
        },
        "geometry": {
          "type": "Point",
          "coordinates": [
            52.89028,
            29.93444
          ]
        }
      }
    ]
  },
  "115": {
    "type": "FeatureCollection",
    "features": [
      {
        "type": "Feature",
        "properties": {
          "name": "Meidan Emam, Esfahan",
          "ref": "115",
          "parent_id": "115"
        },
        "geometry": {
          "type": "Point",
          "coordinates": [
            51.6777777777,
            32.65745
          ]
        }
      }
    ]
  },
  "1077": {
    "type": "FeatureCollection",
    "features": [
      {
        "type": "Feature",
        "properties": {
          "name": "Takht-e Soleyman",
          "ref": "1077",
          "parent_id": "1077"
        },
        "geometry": {
          "type": "Point",
          "coordinates": [
            47.235,
            36.60388889
          ]
        }
      }
    ]
  },
  "1106": {
    "type": "FeatureCollection",
    "features": [
      {
        "type": "Feature",
        "properties": {
          "name": "Pasargadae",
          "ref": "1106",
          "parent_id": "1106"
        },
        "geometry": {
          "type": "Point",
          "coordinates": [
            53.16729,
            30.19383
          ]
        }
      }
    ]
  },
  "1188": {
    "type": "FeatureCollection",
    "features": [
      {
        "type": "Feature",
        "properties": {
          "name": "Tappeh Nur Kuchak (not marked but the only unmarked site is 303300 4033850)",
          "ref": "1188-012",
          "parent_id": "1188"
        },
        "geometry": {
          "type": "Point",
          "coordinates": [
            48.8057222222,
            36.4297222222
          ]
        }
      },
      {
        "type": "Feature",
        "properties": {
          "name": "Karvangah",
          "ref": "1188-004",
          "parent_id": "1188"
        },
        "geometry": {
          "type": "Point",
          "coordinates": [
            48.8303333333,
            36.4475555556
          ]
        }
      },
      {
        "type": "Feature",
        "properties": {
          "name": "Tappeh Dur",
          "ref": "1188-009",
          "parent_id": "1188"
        },
        "geometry": {
          "type": "Point",
          "coordinates": [
            48.7825833333,
            36.4393888889
          ]
        }
      },
      {
        "type": "Feature",
        "properties": {
          "name": "Fenjanabad",
          "ref": "1188-011",
          "parent_id": "1188"
        },
        "geometry": {
          "type": "Point",
          "coordinates": [
            48.8110833333,
            36.4374722222
          ]
        }
      },
      {
        "type": "Feature",
        "properties": {
          "name": "Seh Tappeh",
          "ref": "1188-002",
          "parent_id": "1188"
        },
        "geometry": {
          "type": "Point",
          "coordinates": [
            48.78625,
            36.4640555556
          ]
        }
      },
      {
        "type": "Feature",
        "properties": {
          "name": "Qush Khaneh",
          "ref": "1188-006",
          "parent_id": "1188"
        },
        "geometry": {
          "type": "Point",
          "coordinates": [
            48.7886944444,
            36.4208333333
          ]
        }
      },
      {
        "type": "Feature",
        "properties": {
          "name": "Tappeh Qal'eh",
          "ref": "1188-003",
          "parent_id": "1188"
        },
        "geometry": {
          "type": "Point",
          "coordinates": [
            48.78275,
            36.4536388889
          ]
        }
      },
      {
        "type": "Feature",
        "properties": {
          "name": "Chelebi Oghlu",
          "ref": "1188-005",
          "parent_id": "1188"
        },
        "geometry": {
          "type": "Point",
          "coordinates": [
            48.7863055556,
            36.4307222222
          ]
        }
      },
      {
        "type": "Feature",
        "properties": {
          "name": "Emamzadeh Dur",
          "ref": "1188-010",
          "parent_id": "1188"
        },
        "geometry": {
          "type": "Point",
          "coordinates": [
            48.7830555556,
            36.4384166667
          ]
        }
      },
      {
        "type": "Feature",
        "properties": {
          "name": "Ruins and kilns",
          "ref": "1188-008",
          "parent_id": "1188"
        },
        "geometry": {
          "type": "Point",
          "coordinates": [
            48.7987777778,
            36.4192222222
          ]
        }
      },
      {
        "type": "Feature",
        "properties": {
          "name": "Soltaniyeh Dome",
          "ref": "1188-001",
          "parent_id": "1188"
        },
        "geometry": {
          "type": "Point",
          "coordinates": [
            48.7960277778,
            36.4339722222
          ]
        }
      },
      {
        "type": "Feature",
        "properties": {
          "name": "Tappeh Nur (TombTower)",
          "ref": "1188-013",
          "parent_id": "1188"
        },
        "geometry": {
          "type": "Point",
          "coordinates": [
            48.8020277778,
            36.4270277778
          ]
        }
      },
      {
        "type": "Feature",
        "properties": {
          "name": "Mollah Hassan Kashi Tomb",
          "ref": "1188-007",
          "parent_id": "1188"
        },
        "geometry": {
          "type": "Point",
          "coordinates": [
            48.7946944444,
            36.4176111111
          ]
        }
      },
      {
        "type": "Feature",
        "properties": {
          "name": "Soltaniyeh pasture including Mostafa Khan site",
          "ref": "1188-014",
          "parent_id": "1188"
        },
        "geometry": {
          "type": "Point",
          "coordinates": [
            48.8170277778,
            36.4441666667
          ]
        }
      }
    ]
  },
  "1208": {
    "type": "FeatureCollection",
    "features": [
      {
        "type": "Feature",
        "properties": {
          "name": "Bam and its Cultural Landscape",
          "ref": "1208bis",
          "parent_id": "1208"
        },
        "geometry": {
          "type": "Point",
          "coordinates": [
            58.3666666667,
            29.11683
          ]
        }
      }
    ]
  },
  "1222": {
    "type": "FeatureCollection",
    "features": [
      {
        "type": "Feature",
        "properties": {
          "name": "Bisotun",
          "ref": "1222",
          "parent_id": "1222"
        },
        "geometry": {
          "type": "Point",
          "coordinates": [
            47.4366666666,
            34.3883333333
          ]
        }
      }
    ]
  },
  "1262": {
    "type": "FeatureCollection",
    "features": [
      {
        "type": "Feature",
        "properties": {
          "name": "The main chapel (Dzordzor)",
          "ref": "1262-007",
          "img": "/images/1262-007-{size}.webp",
          "parent_id": "1262"
        },
        "geometry": {
          "type": "Point",
          "coordinates": [
            44.4761111111,
            39.1877777778
          ]
        }
      },
      {
        "type": "Feature",
        "properties": {
          "name": "The Baran village (Dzordzor)",
          "ref": "1262-008",
          "img": "",
          "parent_id": "1262"
        },
        "geometry": {
          "type": "Point",
          "coordinates": [
            44.4761111111,
            39.1877777778
          ]
        }
      },
      {
        "type": "Feature",
        "properties": {
          "name": "The Monastery of Saint Thaddeus",
          "ref": "1262-001",
          "img": "/images/1262-001-{size}.webp",
          "parent_id": "1262"
        },
        "geometry": {
          "type": "Point",
          "coordinates": [
            44.5444444444,
            39.0922222222
          ]
        }
      },
      {
        "type": "Feature",
        "properties": {
          "name": "The village (Saint Thaddeus Ensemble)",
          "ref": "1262-002",
          "img": "",
          "parent_id": "1262"
        },
        "geometry": {
          "type": "Point",
          "coordinates": [
            44.5444444444,
            39.0922222222
          ]
        }
      },
      {
        "type": "Feature",
        "properties": {
          "name": "Chupan Chapel (Saint Stepanos Esemble)",
          "ref": "1262-006",
          "img": "/images/1262-006-{size}.webp",
          "parent_id": "1262"
        },
        "geometry": {
          "type": "Point",
          "coordinates": [
            45.5727777778,
            38.9752777778
          ]
        }
      },
      {
        "type": "Feature",
        "properties": {
          "name": "Darresham Chapel (Saint Stepanos Esemble)",
          "ref": "1262-005",
          "img": "/images/1262-005-{size}.webp",
          "parent_id": "1262"
        },
        "geometry": {
          "type": "Point",
          "coordinates": [
            45.4522222222,
            38.99
          ]
        }
      },
      {
        "type": "Feature",
        "properties": {
          "name": "Chapel 5 (Sandokht) (Saint Thaddeus Ensemble)",
          "ref": "1262-003",
          "img": "/images/1262-006-{size}.webp",
          "parent_id": "1262"
        },
        "geometry": {
          "type": "Point",
          "coordinates": [
            44.5444444444,
            39.0922222222
          ]
        }
      },
      {
        "type": "Feature",
        "properties": {
          "name": "The main church (Monastery of Saint Stepanos Esemble)",
          "ref": "1262-004",
          "img": "/images/1262-004-{size}.webp",
          "parent_id": "1262"
        },
        "geometry": {
          "type": "Point",
          "coordinates": [
            45.4733333333,
            38.9788888889
          ]
        }
      }
    ]
  },
  "1315": {
    "type": "FeatureCollection",
    "features": [
      {
        "type": "Feature",
        "properties": {
          "name": "Shushtar Historical Hydraulic System",
          "ref": "1315",
          "parent_id": "1315"
        },
        "geometry": {
          "type": "Point",
          "coordinates": [
            48.8358333333,
            32.0186111111
          ]
        }
      }
    ]
  },
  "1345": {
    "type": "FeatureCollection",
    "features": [
      {
        "type": "Feature",
        "properties": {
          "name": "Sheikh Safi al-din Khānegāh and Shrine Ensemble in Ardabil",
          "ref": "1345",
          "parent_id": "1345"
        },
        "geometry": {
          "type": "Point",
          "coordinates": [
            48.2913888889,
            38.2486111111
          ]
        }
      }
    ]
  },
  "1346": {
    "type": "FeatureCollection",
    "features": [
      {
        "type": "Feature",
        "properties": {
          "name": "Center",
          "ref": "1346-001",
          "img": "/images/1346-001-{size}.webp",
          "parent_id": "1346"
        },
        "geometry": {
          "type": "Point",
          "coordinates": [
            46.2930555556,
            38.0813888889
          ]
        }
      },
      {
        "type": "Feature",
        "properties": {
          "name": "Sorkhab",
          "ref": "1346-003",
          "parent_id": "1346"
        },
        "geometry": {
          "type": "Point",
          "coordinates": [
            46.2980555556,
            38.0847222222
          ]
        }
      },
      {
        "type": "Feature",
        "properties": {
          "name": "Kabood Mosque",
          "ref": "1346-002",
          "img": "/images/1346-002-{size}.webp",
          "parent_id": "1346"
        },
        "geometry": {
          "type": "Point",
          "coordinates": [
            46.3008333333,
            38.0736111111
          ]
        }
      }
    ]
  },
  "1372": {
    "type": "FeatureCollection",
    "features": [
      {
        "type": "Feature",
        "properties": {
          "name": "Bagh-e Fin",
          "ref": "1372-004",
          "img": "/images/1372-004-{size}.webp",
          "parent_id": "1372"
        },
        "geometry": {
          "type": "Point",
          "coordinates": [
            51.3724531554,
            33.9462714748
          ]
        }
      },
      {
        "type": "Feature",
        "properties": {
          "name": "Bagh-e Eram",
          "ref": "1372-002",
          "img": "/images/1372-002-{size}.webp",
          "parent_id": "1372"
        },
        "geometry": {
          "type": "Point",
          "coordinates": [
            52.5252777778,
            29.6361111111
          ]
        }
      },
      {
        "type": "Feature",
        "properties": {
          "name": "Bagh-e Abas Abad",
          "ref": "1372-005",
          "img": "/images/1372-005-{size}.webp",
          "parent_id": "1372"
        },
        "geometry": {
          "type": "Point",
          "coordinates": [
            53.5938888889,
            36.6638888889
          ]
        }
      },
      {
        "type": "Feature",
        "properties": {
          "name": "Bagh-e Shahzadeh",
          "ref": "1372-006",
          "img": "/images/1372-006-{size}.webp",
          "parent_id": "1372"
        },
        "geometry": {
          "type": "Point",
          "coordinates": [
            57.2830555556,
            30.025
          ]
        }
      },
      {
        "type": "Feature",
        "properties": {
          "name": "Bagh-e Akbariyeh",
          "ref": "1372-009",
          "img": "/images/1372-009-{size}.webp",
          "parent_id": "1372"
        },
        "geometry": {
          "type": "Point",
          "coordinates": [
            59.2277777778,
            32.8527777778
          ]
        }
      },
      {
        "type": "Feature",
        "properties": {
          "name": "Bagh-e Dolat Abad",
          "ref": "1372-007",
          "img": "/images/1372-007-{size}.webp",
          "parent_id": "1372"
        },
        "geometry": {
          "type": "Point",
          "coordinates": [
            54.3519444444,
            31.9033333333
          ]
        }
      },
      {
        "type": "Feature",
        "properties": {
          "name": "Bagh-e Pahlavanpur",
          "ref": "1372-008",
          "img": "",
          "parent_id": "1372"
        },
        "geometry": {
          "type": "Point",
          "coordinates": [
            54.4402777778,
            31.5602777778
          ]
        }
      },
      {
        "type": "Feature",
        "properties": {
          "name": "Bagh-e Chehel Sotun",
          "ref": "1372-003",
          "img": "/images/1372-003-{size}.webp",
          "parent_id": "1372"
        },
        "geometry": {
          "type": "Point",
          "coordinates": [
            51.6722222222,
            32.6575
          ]
        }
      },
      {
        "type": "Feature",
        "properties": {
          "name": "Ancient Garden of Pasargadae",
          "ref": "1372-001",
          "img": "",
          "parent_id": "1372"
        },
        "geometry": {
          "type": "Point",
          "coordinates": [
            53.1788758778,
            30.2013918168
          ]
        }
      }
    ]
  },
  "1397": {
    "type": "FeatureCollection",
    "features": [
      {
        "type": "Feature",
        "properties": {
          "name": "Masjed-e Jāmé of Isfahan",
          "ref": "1397",
          "parent_id": "1397"
        },
        "geometry": {
          "type": "Point",
          "coordinates": [
            51.6852777778,
            32.6697222222
          ]
        }
      }
    ]
  },
  "1398": {
    "type": "FeatureCollection",
    "features": [
      {
        "type": "Feature",
        "properties": {
          "name": "Gonbad-e Qābus",
          "ref": "1398",
          "parent_id": "1398"
        },
        "geometry": {
          "type": "Point",
          "coordinates": [
            55.169,
            37.2580277778
          ]
        }
      }
    ]
  },
  "1422": {
    "type": "FeatureCollection",
    "features": [
      {
        "type": "Feature",
        "properties": {
          "name": "Golestan Palace",
          "ref": "1422",
          "parent_id": "1422"
        },
        "geometry": {
          "type": "Point",
          "coordinates": [
            51.4205111111,
            35.6803666667
          ]
        }
      }
    ]
  },
  "1423": {
    "type": "FeatureCollection",
    "features": [
      {
        "type": "Feature",
        "properties": {
          "name": "Cultural Landscape of Maymand",
          "ref": "1423rev",
          "parent_id": "1423"
        },
        "geometry": {
          "type": "Point",
          "coordinates": [
            55.3755555556,
            30.1680555556
          ]
        }
      }
    ]
  },
  "1455": {
    "type": "FeatureCollection",
    "features": [
      {
        "type": "Feature",
        "properties": {
          "name": "Ardeshir Palace",
          "ref": "1455-002",
          "img": "/images/whc-unesco-org/137144-{size}.webp",
          "parent_id": "1455"
        },
        "geometry": {
          "type": "Point",
          "coordinates": [
            48.2430555556,
            32.1938888889
          ]
        }
      },
      {
        "type": "Feature",
        "properties": {
          "name": "Susa archaeological complex",
          "ref": "1455-001",
          "img": "/images/1455-001-{size}.webp",
          "parent_id": "1455"
        },
        "geometry": {
          "type": "Point",
          "coordinates": [
            48.2563722222,
            32.1894583333
          ]
        }
      }
    ]
  },
  "1456": {
    "type": "FeatureCollection",
    "features": [
      {
        "type": "Feature",
        "properties": {
          "name": "Shahr-i Sokhta",
          "ref": "1456",
          "parent_id": "1456"
        },
        "geometry": {
          "type": "Point",
          "coordinates": [
            61.3277777778,
            30.5938888889
          ]
        }
      }
    ]
  },
  "1505": {
    "type": "FeatureCollection",
    "features": [
      {
        "type": "Feature",
        "properties": {
          "name": "Lut Desert",
          "ref": "1505",
          "parent_id": "1505"
        },
        "geometry": {
          "type": "Point",
          "coordinates": [
            58.8388888889,
            30.2161111111
          ]
        }
      }
    ]
  },
  "1506": {
    "type": "FeatureCollection",
    "features": [
      {
        "type": "Feature",
        "properties": {
          "name": "Akbar Abad",
          "ref": "1506-011",
          "img": "/images/whc-unesco-org/141566-{size}.webp",
          "parent_id": "1506"
        },
        "geometry": {
          "type": "Point",
          "coordinates": [
            58.3986111111,
            29.0894444444
          ]
        }
      },
      {
        "type": "Feature",
        "properties": {
          "name": "Ghasem Abad",
          "ref": "1506-010",
          "img": "/images/whc-unesco-org/141567-{size}.webp",
          "parent_id": "1506"
        },
        "geometry": {
          "type": "Point",
          "coordinates": [
            58.3988888889,
            29.0902777778
          ]
        }
      },
      {
        "type": "Feature",
        "properties": {
          "name": "Qanat of Zarch",
          "ref": "1506-003",
          "img": "/images/whc-unesco-org/141568-{size}.webp",
          "parent_id": "1506"
        },
        "geometry": {
          "type": "Point",
          "coordinates": [
            54.369128201,
            31.9074111424
          ]
        }
      },
      {
        "type": "Feature",
        "properties": {
          "name": "Qasabeh Gonabad",
          "ref": "1506-001",
          "img": "/images/whc-unesco-org/141569-{size}.webp",
          "parent_id": "1506"
        },
        "geometry": {
          "type": "Point",
          "coordinates": [
            58.6544444444,
            34.29
          ]
        }
      },
      {
        "type": "Feature",
        "properties": {
          "name": "Qanat of Vazvan",
          "ref": "1506-006",
          "img": "/images/whc-unesco-org/141570-{size}.webp",
          "parent_id": "1506"
        },
        "geometry": {
          "type": "Point",
          "coordinates": [
            51.1782763703,
            33.4317415323
          ]
        }
      },
      {
        "type": "Feature",
        "properties": {
          "name": "Mozd Abad Qanat",
          "ref": "1506-007",
          "img": "/images/whc-unesco-org/141565-{size}.webp",
          "parent_id": "1506"
        },
        "geometry": {
          "type": "Point",
          "coordinates": [
            51.600672942,
            33.2590794214
          ]
        }
      },
      {
        "type": "Feature",
        "properties": {
          "name": "Qanat of Baladeh",
          "ref": "1506-002",
          "img": "/images/whc-unesco-org/141582-{size}.webp",
          "parent_id": "1506"
        },
        "geometry": {
          "type": "Point",
          "coordinates": [
            58.3736686016,
            34.1355177615
          ]
        }
      },
      {
        "type": "Feature",
        "properties": {
          "name": "Qanat of the Moon",
          "ref": "1506-008",
          "img": "/images/whc-unesco-org/141561-{size}.webp",
          "parent_id": "1506"
        },
        "geometry": {
          "type": "Point",
          "coordinates": [
            52.375,
            33.3791666667
          ]
        }
      },
      {
        "type": "Feature",
        "properties": {
          "name": "Qanat of Gowhariz",
          "ref": "1506-009",
          "img": "/images/whc-unesco-org/141571-{size}.webp",
          "parent_id": "1506"
        },
        "geometry": {
          "type": "Point",
          "coordinates": [
            57.1141895875,
            30.0439893975
          ]
        }
      },
      {
        "type": "Feature",
        "properties": {
          "name": "Ebrahim Abad Qanat",
          "ref": "1506-005",
          "img": "/images/whc-unesco-org/141577-{size}.webp",
          "parent_id": "1506"
        },
        "geometry": {
          "type": "Point",
          "coordinates": [
            50.0252777778,
            34.0941666666
          ]
        }
      },
      {
        "type": "Feature",
        "properties": {
          "name": "Hasam Abad-e Moshir Qanat",
          "ref": "1506-004",
          "img": "/images/whc-unesco-org/141572-{size}.webp",
          "parent_id": "1506"
        },
        "geometry": {
          "type": "Point",
          "coordinates": [
            54.4127027741,
            31.5824806019
          ]
        }
      }
    ]
  },
  "1544": {
    "type": "FeatureCollection",
    "features": [
      {
        "type": "Feature",
        "properties": {
          "name": "Area 1",
          "ref": "1544-001",
          "img": "/images/1544-001-{size}.webp",
          "parent_id": "1544"
        },
        "geometry": {
          "type": "Point",
          "coordinates": [
            54.3691666667,
            31.9013888889
          ]
        }
      },
      {
        "type": "Feature",
        "properties": {
          "name": "Area 2",
          "ref": "1544-002",
          "img": "/images/1544-002-{size}.webp",
          "parent_id": "1544"
        },
        "geometry": {
          "type": "Point",
          "coordinates": [
            54.3730555556,
            31.8836111111
          ]
        }
      },
      {
        "type": "Feature",
        "properties": {
          "name": "Area 3",
          "ref": "1544-003",
          "img": "/images/whc-unesco-org/158106-{size}.webp",
          "parent_id": "1544"
        },
        "geometry": {
          "type": "Point",
          "coordinates": [
            54.3513888889,
            31.9033333333
          ]
        }
      }
    ]
  },
  "1568": {
    "type": "FeatureCollection",
    "features": [
      {
        "type": "Feature",
        "properties": {
          "name": "Bishapur: Shapur cave",
          "ref": "1568-007",
          "img": "/images/1568-007-{size}.webp",
          "parent_id": "1568"
        },
        "geometry": {
          "type": "Point",
          "coordinates": [
            51.6130555556,
            29.8068333333
          ]
        }
      },
      {
        "type": "Feature",
        "properties": {
          "name": "Firuzabad : Qaleh Dokhtar",
          "ref": "1568-001",
          "img": "/images/1568-001-{size}.webp",
          "parent_id": "1568"
        },
        "geometry": {
          "type": "Point",
          "coordinates": [
            52.5300861111,
            28.9208888889
          ]
        }
      },
      {
        "type": "Feature",
        "properties": {
          "name": "Firuzabad: Ardashir Palace",
          "ref": "1568-005",
          "img": "/images/1568-005-{size}.webp",
          "parent_id": "1568"
        },
        "geometry": {
          "type": "Point",
          "coordinates": [
            52.5392138889,
            28.8979805556
          ]
        }
      },
      {
        "type": "Feature",
        "properties": {
          "name": "Firuzabad: Ardashir Khurreh",
          "ref": "1568-004",
          "img": "/images/1568-004-{size}.webp",
          "parent_id": "1568"
        },
        "geometry": {
          "type": "Point",
          "coordinates": [
            52.5325416667,
            28.8521472222
          ]
        }
      },
      {
        "type": "Feature",
        "properties": {
          "name": "Sarvestan: Sarvestan Monument",
          "ref": "1568-008",
          "img": "/images/1568-008-{size}.webp",
          "parent_id": "1568"
        },
        "geometry": {
          "type": "Point",
          "coordinates": [
            53.2310666667,
            29.1955388889
          ]
        }
      },
      {
        "type": "Feature",
        "properties": {
          "name": "Firuzabad : Ardashir investiture Relief",
          "ref": "1568-002",
          "img": "/images/1568-002-{size}.webp",
          "parent_id": "1568"
        },
        "geometry": {
          "type": "Point",
          "coordinates": [
            52.5373944444,
            28.9165555556
          ]
        }
      },
      {
        "type": "Feature",
        "properties": {
          "name": "Firuzabad: The Victory Relief of Ardashir",
          "ref": "1568-003",
          "img": "/images/1568-003-{size}.webp",
          "parent_id": "1568"
        },
        "geometry": {
          "type": "Point",
          "coordinates": [
            52.5409166667,
            28.9098722222
          ]
        }
      },
      {
        "type": "Feature",
        "properties": {
          "name": "Bishapur : The city of Bishapur and its related components",
          "ref": "1568-006",
          "img": "/images/1568-006-{size}.webp",
          "parent_id": "1568"
        },
        "geometry": {
          "type": "Point",
          "coordinates": [
            51.57045,
            29.7774805556
          ]
        }
      }
    ]
  },
  "1584": {
    "type": "FeatureCollection",
    "features": [
      {
        "type": "Feature",
        "properties": {
          "name": "Boola",
          "ref": "1584bis-006",
          "img": "/images/whc-unesco-org/166795-{size}.webp",
          "parent_id": "1584"
        },
        "geometry": {
          "type": "Point",
          "coordinates": [
            53.39375,
            36.0988305555
          ]
        }
      },
      {
        "type": "Feature",
        "properties": {
          "name": "Lisar",
          "ref": "1584bis-015",
          "img": "",
          "parent_id": "1584"
        },
        "geometry": {
          "type": "Point",
          "coordinates": [
            48.8323333334,
            37.9355527777
          ]
        }
      },
      {
        "type": "Feature",
        "properties": {
          "name": "Kojoor",
          "ref": "1584bis-010",
          "img": "/images/whc-unesco-org/166788-{size}.webp",
          "parent_id": "1584"
        },
        "geometry": {
          "type": "Point",
          "coordinates": [
            51.6676388889,
            36.546025
          ]
        }
      },
      {
        "type": "Feature",
        "properties": {
          "name": "Alimestan",
          "ref": "1584bis-007",
          "img": "/images/whc-unesco-org/166814-{size}.webp",
          "parent_id": "1584"
        },
        "geometry": {
          "type": "Point",
          "coordinates": [
            52.4039416667,
            36.1735833334
          ]
        }
      },
      {
        "type": "Feature",
        "properties": {
          "name": "Abr (East)",
          "ref": "1584bis-003",
          "img": "",
          "parent_id": "1584"
        },
        "geometry": {
          "type": "Point",
          "coordinates": [
            54.9448888889,
            36.8125805556
          ]
        }
      },
      {
        "type": "Feature",
        "properties": {
          "name": "Abr (West)",
          "ref": "1584bis-004",
          "img": "",
          "parent_id": "1584"
        },
        "geometry": {
          "type": "Point",
          "coordinates": [
            55.1009416667,
            36.8158305556
          ]
        }
      },
      {
        "type": "Feature",
        "properties": {
          "name": "Jahan Nama",
          "ref": "1584bis-005",
          "img": "/images/whc-unesco-org/166812-{size}.webp",
          "parent_id": "1584"
        },
        "geometry": {
          "type": "Point",
          "coordinates": [
            54.4015277778,
            36.6652777778
          ]
        }
      },
      {
        "type": "Feature",
        "properties": {
          "name": "Vaz (East)",
          "ref": "1584bis-008",
          "img": "",
          "parent_id": "1584"
        },
        "geometry": {
          "type": "Point",
          "coordinates": [
            52.1250555556,
            36.2791083334
          ]
        }
      },
      {
        "type": "Feature",
        "properties": {
          "name": "Vaz (West)",
          "ref": "1584bis-009",
          "img": "",
          "parent_id": "1584"
        },
        "geometry": {
          "type": "Point",
          "coordinates": [
            52.0610555556,
            36.3074694444
          ]
        }
      },
      {
        "type": "Feature",
        "properties": {
          "name": "Chahar-Bagh",
          "ref": "1584bis-011",
          "img": "/images/whc-unesco-org/166817-{size}.webp",
          "parent_id": "1584"
        },
        "geometry": {
          "type": "Point",
          "coordinates": [
            51.2171388889,
            36.2585555556
          ]
        }
      },
      {
        "type": "Feature",
        "properties": {
          "name": "Gast Roudkhan",
          "ref": "1584bis-014",
          "img": "",
          "parent_id": "1584"
        },
        "geometry": {
          "type": "Point",
          "coordinates": [
            49.1527472222,
            37.0655555556
          ]
        }
      },
      {
        "type": "Feature",
        "properties": {
          "name": "Khoshk-e-Daran",
          "ref": "1584bis-012",
          "img": "/images/whc-unesco-org/166836-{size}.webp",
          "parent_id": "1584"
        },
        "geometry": {
          "type": "Point",
          "coordinates": [
            51.0639694444,
            36.7272472223
          ]
        }
      },
      {
        "type": "Feature",
        "properties": {
          "name": "Golestan (North)",
          "ref": "1584bis-001",
          "img": "/images/whc-unesco-org/166800-{size}.webp",
          "parent_id": "1584"
        },
        "geometry": {
          "type": "Point",
          "coordinates": [
            55.824,
            37.425
          ]
        }
      },
      {
        "type": "Feature",
        "properties": {
          "name": "Golestan (South)",
          "ref": "1584bis-002",
          "img": "/images/whc-unesco-org/166802-{size}.webp",
          "parent_id": "1584"
        },
        "geometry": {
          "type": "Point",
          "coordinates": [
            55.826,
            37.342
          ]
        }
      },
      {
        "type": "Feature",
        "properties": {
          "name": "Siahroud-e-Roudbar",
          "ref": "1584bis-013",
          "img": "/images/whc-unesco-org/166819-{size}.webp",
          "parent_id": "1584"
        },
        "geometry": {
          "type": "Point",
          "coordinates": [
            49.6720277778,
            36.899775
          ]
        }
      },
      {
        "type": "Feature",
        "properties": {
          "name": "Dangyaband (Northern HNP)",
          "ref": "1584bis-016",
          "img": "",
          "parent_id": "1584"
        },
        "geometry": {
          "type": "Point",
          "coordinates": [
            48.6825055556,
            38.754475
          ]
        }
      },
      {
        "type": "Feature",
        "properties": {
          "name": "İstisuchay Valley (Southern HNP)",
          "ref": "1584bis-017",
          "img": "",
          "parent_id": "1584"
        },
        "geometry": {
          "type": "Point",
          "coordinates": [
            48.6793027778,
            38.4549666667
          ]
        }
      }
    ]
  },
  "1585": {
    "type": "FeatureCollection",
    "features": [
      {
        "type": "Feature",
        "properties": {
          "name": "Trans-Iranian Railway",
          "ref": "1585",
          "parent_id": "1585"
        },
        "geometry": {
          "type": "Point",
          "coordinates": [
            51.3983333333,
            35.6583055556
          ]
        }
      }
    ]
  },
  "1647": {
    "type": "FeatureCollection",
    "features": [
      {
        "type": "Feature",
        "properties": {
          "name": "Western Valley",
          "ref": "1647-002",
          "img": "/images/1647-002-{size}.webp",
          "parent_id": "1647"
        },
        "geometry": {
          "type": "Point",
          "coordinates": [
            46.1365138889,
            34.9462916666
          ]
        }
      },
      {
        "type": "Feature",
        "properties": {
          "name": "Central-Eastern Valley",
          "ref": "1647-001",
          "img": "/images/1647-001-{size}.webp",
          "parent_id": "1647"
        },
        "geometry": {
          "type": "Point",
          "coordinates": [
            46.4778472223,
            35.1073555556
          ]
        }
      }
    ]
  },
  "1668": {
    "type": "FeatureCollection",
    "features": [
      {
        "type": "Feature",
        "properties": {
          "name": "Gaz",
          "ref": "1668-017",
          "img": "/images/1668-017-{size}.webp",
          "parent_id": "1668"
        },
        "geometry": {
          "type": "Point",
          "coordinates": [
            51.6093222222,
            32.8093583333
          ]
        }
      },
      {
        "type": "Feature",
        "properties": {
          "name": "Mehr",
          "ref": "1668-020",
          "img": "/images/1668-020-{size}.webp",
          "parent_id": "1668"
        },
        "geometry": {
          "type": "Point",
          "coordinates": [
            57.1436027777,
            36.2845916666
          ]
        }
      },
      {
        "type": "Feature",
        "properties": {
          "name": "Titi",
          "ref": "1668-038",
          "img": "/images/1668-038-{size}.webp",
          "parent_id": "1668"
        },
        "geometry": {
          "type": "Point",
          "coordinates": [
            49.9022361111,
            37.044775
          ]
        }
      },
      {
        "type": "Feature",
        "properties": {
          "name": "Khoy",
          "ref": "1668-040",
          "img": "",
          "parent_id": "1668"
        },
        "geometry": {
          "type": "Point",
          "coordinates": [
            44.6235277778,
            38.466
          ]
        }
      },
      {
        "type": "Feature",
        "properties": {
          "name": "Qelli",
          "ref": "1668-010",
          "img": "",
          "parent_id": "1668"
        },
        "geometry": {
          "type": "Point",
          "coordinates": [
            56.9207416667,
            37.1532944444
          ]
        }
      },
      {
        "type": "Feature",
        "properties": {
          "name": "Khān",
          "ref": "1668-044",
          "img": "/images/1668-044-{size}.webp",
          "parent_id": "1668"
        },
        "geometry": {
          "type": "Point",
          "coordinates": [
            56.0704138889,
            33.3663805556
          ]
        }
      },
      {
        "type": "Feature",
        "properties": {
          "name": "Afzal",
          "ref": "1668-052",
          "img": "/images/1668-052-{size}.webp",
          "parent_id": "1668"
        },
        "geometry": {
          "type": "Point",
          "coordinates": [
            48.8521277778,
            32.0439611111
          ]
        }
      },
      {
        "type": "Feature",
        "properties": {
          "name": "Parand",
          "ref": "1668-004",
          "img": "/images/1668-004-{size}.webp",
          "parent_id": "1668"
        },
        "geometry": {
          "type": "Point",
          "coordinates": [
            50.9745972223,
            35.4582277778
          ]
        }
      },
      {
        "type": "Feature",
        "properties": {
          "name": "Meybod",
          "ref": "1668-029",
          "img": "/images/1668-029-{size}.webp",
          "parent_id": "1668"
        },
        "geometry": {
          "type": "Point",
          "coordinates": [
            54.0091944444,
            32.227925
          ]
        }
      },
      {
        "type": "Feature",
        "properties": {
          "name": "Sāeen",
          "ref": "1668-037",
          "img": "/images/1668-037-{size}.webp",
          "parent_id": "1668"
        },
        "geometry": {
          "type": "Point",
          "coordinates": [
            47.8815861111,
            38.0010444444
          ]
        }
      },
      {
        "type": "Feature",
        "properties": {
          "name": "Rashti",
          "ref": "1668-049",
          "img": "/images/1668-049-{size}.webp",
          "parent_id": "1668"
        },
        "geometry": {
          "type": "Point",
          "coordinates": [
            53.6310527778,
            32.4407222222
          ]
        }
      },
      {
        "type": "Feature",
        "properties": {
          "name": "Bastak",
          "ref": "1668-053",
          "img": "/images/1668-053-{size}.webp",
          "parent_id": "1668"
        },
        "geometry": {
          "type": "Point",
          "coordinates": [
            54.3759722223,
            27.1985
          ]
        }
      },
      {
        "type": "Feature",
        "properties": {
          "name": "Mahyār",
          "ref": "1668-016",
          "img": "/images/1668-016-{size}.webp",
          "parent_id": "1668"
        },
        "geometry": {
          "type": "Point",
          "coordinates": [
            51.8097333333,
            32.2650166667
          ]
        }
      },
      {
        "type": "Feature",
        "properties": {
          "name": "Mazinān",
          "ref": "1668-019",
          "img": "/images/1668-019-{size}.webp",
          "parent_id": "1668"
        },
        "geometry": {
          "type": "Point",
          "coordinates": [
            56.8064416667,
            36.3078777778
          ]
        }
      },
      {
        "type": "Feature",
        "properties": {
          "name": "Mayāmey",
          "ref": "1668-025",
          "img": "/images/1668-025-{size}.webp",
          "parent_id": "1668"
        },
        "geometry": {
          "type": "Point",
          "coordinates": [
            55.6533,
            36.4091861111
          ]
        }
      },
      {
        "type": "Feature",
        "properties": {
          "name": "Farasfaj",
          "ref": "1668-030",
          "img": "/images/1668-030-{size}.webp",
          "parent_id": "1668"
        },
        "geometry": {
          "type": "Point",
          "coordinates": [
            48.2829888889,
            34.4879666666
          ]
        }
      },
      {
        "type": "Feature",
        "properties": {
          "name": "Bisotūn",
          "ref": "1668-032",
          "img": "/images/1668-032-{size}.webp",
          "parent_id": "1668"
        },
        "geometry": {
          "type": "Point",
          "coordinates": [
            47.4349333333,
            34.3845333333
          ]
        }
      },
      {
        "type": "Feature",
        "properties": {
          "name": "Goujebel",
          "ref": "1668-036",
          "img": "",
          "parent_id": "1668"
        },
        "geometry": {
          "type": "Point",
          "coordinates": [
            46.86335,
            38.3438944444
          ]
        }
      },
      {
        "type": "Feature",
        "properties": {
          "name": "Dehdasht",
          "ref": "1668-039",
          "img": "",
          "parent_id": "1668"
        },
        "geometry": {
          "type": "Point",
          "coordinates": [
            50.561525,
            30.7882027777
          ]
        }
      },
      {
        "type": "Feature",
        "properties": {
          "name": "Chameshk",
          "ref": "1668-051",
          "img": "",
          "parent_id": "1668"
        },
        "geometry": {
          "type": "Point",
          "coordinates": [
            48.2113361111,
            33.2379555555
          ]
        }
      },
      {
        "type": "Feature",
        "properties": {
          "name": "Āhovān",
          "ref": "1668-003",
          "img": "/images/1668-003-{size}.webp",
          "parent_id": "1668"
        },
        "geometry": {
          "type": "Point",
          "coordinates": [
            53.7301444445,
            35.7705388889
          ]
        }
      },
      {
        "type": "Feature",
        "properties": {
          "name": "Maranjāb",
          "ref": "1668-013",
          "img": "/images/1668-013-{size}.webp",
          "parent_id": "1668"
        },
        "geometry": {
          "type": "Point",
          "coordinates": [
            51.8123861111,
            34.2991361111
          ]
        }
      },
      {
        "type": "Feature",
        "properties": {
          "name": "Sarāyān",
          "ref": "1668-023",
          "img": "/images/1668-023-{size}.webp",
          "parent_id": "1668"
        },
        "geometry": {
          "type": "Point",
          "coordinates": [
            58.5180166667,
            33.8552861111
          ]
        }
      },
      {
        "type": "Feature",
        "properties": {
          "name": "Kharānaq",
          "ref": "1668-048",
          "img": "/images/1668-048-{size}.webp",
          "parent_id": "1668"
        },
        "geometry": {
          "type": "Point",
          "coordinates": [
            54.6679833334,
            32.3449472222
          ]
        }
      },
      {
        "type": "Feature",
        "properties": {
          "name": "Kūhpāyeh",
          "ref": "1668-018",
          "img": "",
          "parent_id": "1668"
        },
        "geometry": {
          "type": "Point",
          "coordinates": [
            52.4357861111,
            32.7134305556
          ]
        }
      },
      {
        "type": "Feature",
        "properties": {
          "name": "Miāndasht",
          "ref": "1668-027",
          "img": "/images/1668-027-{size}.webp",
          "parent_id": "1668"
        },
        "geometry": {
          "type": "Point",
          "coordinates": [
            56.0605777778,
            36.4281305556
          ]
        }
      },
      {
        "type": "Feature",
        "properties": {
          "name": "Zeynoddīn",
          "ref": "1668-028",
          "img": "/images/1668-028-{size}.webp",
          "parent_id": "1668"
        },
        "geometry": {
          "type": "Point",
          "coordinates": [
            54.7068527778,
            31.4118583333
          ]
        }
      },
      {
        "type": "Feature",
        "properties": {
          "name": "Borāzjān",
          "ref": "1668-050",
          "img": "/images/1668-050-{size}.webp",
          "parent_id": "1668"
        },
        "geometry": {
          "type": "Point",
          "coordinates": [
            51.2082583333,
            29.2671138889
          ]
        }
      },
      {
        "type": "Feature",
        "properties": {
          "name": "Noushirvān",
          "ref": "1668-002",
          "img": "/images/1668-002-{size}.webp",
          "parent_id": "1668"
        },
        "geometry": {
          "type": "Point",
          "coordinates": [
            53.7323722223,
            35.7707305556
          ]
        }
      },
      {
        "type": "Feature",
        "properties": {
          "name": "Amin Ābād",
          "ref": "1668-014",
          "img": "/images/1668-014-{size}.webp",
          "parent_id": "1668"
        },
        "geometry": {
          "type": "Point",
          "coordinates": [
            52.0684472223,
            31.6726944445
          ]
        }
      },
      {
        "type": "Feature",
        "properties": {
          "name": "Gabr Ābād",
          "ref": "1668-015",
          "img": "",
          "parent_id": "1668"
        },
        "geometry": {
          "type": "Point",
          "coordinates": [
            51.489525,
            33.7686
          ]
        }
      },
      {
        "type": "Feature",
        "properties": {
          "name": "Īzadkhāst",
          "ref": "1668-031",
          "img": "/images/1668-031-{size}.webp",
          "parent_id": "1668"
        },
        "geometry": {
          "type": "Point",
          "coordinates": [
            52.1332055556,
            31.5133638889
          ]
        }
      },
      {
        "type": "Feature",
        "properties": {
          "name": "Neyestānak",
          "ref": "1668-042",
          "img": "",
          "parent_id": "1668"
        },
        "geometry": {
          "type": "Point",
          "coordinates": [
            52.7993638889,
            32.9712055556
          ]
        }
      },
      {
        "type": "Feature",
        "properties": {
          "name": "Tāj Ābād",
          "ref": "1668-046",
          "img": "/images/1668-046-{size}.webp",
          "parent_id": "1668"
        },
        "geometry": {
          "type": "Point",
          "coordinates": [
            48.2207277778,
            34.8766333334
          ]
        }
      },
      {
        "type": "Feature",
        "properties": {
          "name": "Zafarāniyeh",
          "ref": "1668-021",
          "img": "/images/1668-021-{size}.webp",
          "parent_id": "1668"
        },
        "geometry": {
          "type": "Point",
          "coordinates": [
            58.0862305555,
            36.1657194444
          ]
        }
      },
      {
        "type": "Feature",
        "properties": {
          "name": "Fakhr Ābād",
          "ref": "1668-022",
          "img": "",
          "parent_id": "1668"
        },
        "geometry": {
          "type": "Point",
          "coordinates": [
            58.0553861111,
            34.7446361111
          ]
        }
      },
      {
        "type": "Feature",
        "properties": {
          "name": "Yengeh Emām",
          "ref": "1668-034",
          "img": "/images/1668-034-{size}.webp",
          "parent_id": "1668"
        },
        "geometry": {
          "type": "Point",
          "coordinates": [
            50.7196222223,
            35.9362861111
          ]
        }
      },
      {
        "type": "Feature",
        "properties": {
          "name": "Deh Mohammad",
          "ref": "1668-045",
          "img": "",
          "parent_id": "1668"
        },
        "geometry": {
          "type": "Point",
          "coordinates": [
            56.9791777778,
            33.9915611111
          ]
        }
      },
      {
        "type": "Feature",
        "properties": {
          "name": "Deyr-e Gachin",
          "ref": "1668-001",
          "img": "/images/1668-001-{size}.webp",
          "parent_id": "1668"
        },
        "geometry": {
          "type": "Point",
          "coordinates": [
            51.4201361111,
            35.0583527778
          ]
        }
      },
      {
        "type": "Feature",
        "properties": {
          "name": "Anjireh Sangi",
          "ref": "1668-007",
          "img": "",
          "parent_id": "1668"
        },
        "geometry": {
          "type": "Point",
          "coordinates": [
            54.4840388889,
            32.1622111111
          ]
        }
      },
      {
        "type": "Feature",
        "properties": {
          "name": "Jamāl Ābād",
          "ref": "1668-009",
          "img": "/images/1668-009-{size}.webp",
          "parent_id": "1668"
        },
        "geometry": {
          "type": "Point",
          "coordinates": [
            47.8431,
            37.2719138889
          ]
        }
      },
      {
        "type": "Feature",
        "properties": {
          "name": "Abbās Ābād",
          "ref": "1668-026",
          "img": "/images/1668-026-{size}.webp",
          "parent_id": "1668"
        },
        "geometry": {
          "type": "Point",
          "coordinates": [
            56.387875,
            36.3612194444
          ]
        }
      },
      {
        "type": "Feature",
        "properties": {
          "name": "Ganjali Khān",
          "ref": "1668-033",
          "img": "/images/1668-033-{size}.webp",
          "parent_id": "1668"
        },
        "geometry": {
          "type": "Point",
          "coordinates": [
            57.0789361111,
            30.2909555555
          ]
        }
      },
      {
        "type": "Feature",
        "properties": {
          "name": "Khājeh Nazar",
          "ref": "1668-035",
          "img": "/images/1668-035-{size}.webp",
          "parent_id": "1668"
        },
        "geometry": {
          "type": "Point",
          "coordinates": [
            45.5769722223,
            38.9774444445
          ]
        }
      },
      {
        "type": "Feature",
        "properties": {
          "name": "Chehel Pāyeh",
          "ref": "1668-043",
          "img": "",
          "parent_id": "1668"
        },
        "geometry": {
          "type": "Point",
          "coordinates": [
            57.1404083333,
            31.9400111111
          ]
        }
      },
      {
        "type": "Feature",
        "properties": {
          "name": "Chāh kūrān",
          "ref": "1668-047",
          "img": "/images/1668-047-{size}.webp",
          "parent_id": "1668"
        },
        "geometry": {
          "type": "Point",
          "coordinates": [
            56.8501694444,
            31.5693333334
          ]
        }
      },
      {
        "type": "Feature",
        "properties": {
          "name": "Anjireh Ājori",
          "ref": "1668-006",
          "img": "",
          "parent_id": "1668"
        },
        "geometry": {
          "type": "Point",
          "coordinates": [
            54.4771083334,
            32.1532444444
          ]
        }
      },
      {
        "type": "Feature",
        "properties": {
          "name": "Qasr-e Bahrām",
          "ref": "1668-024",
          "img": "/images/1668-024-{size}.webp",
          "parent_id": "1668"
        },
        "geometry": {
          "type": "Point",
          "coordinates": [
            52.1771361111,
            34.7652805556
          ]
        }
      },
      {
        "type": "Feature",
        "properties": {
          "name": "Bāgh-e Sheikh",
          "ref": "1668-041",
          "img": "",
          "parent_id": "1668"
        },
        "geometry": {
          "type": "Point",
          "coordinates": [
            50.4469555555,
            34.9908305555
          ]
        }
      },
      {
        "type": "Feature",
        "properties": {
          "name": "Fakhr-e Dāvūd",
          "ref": "1668-011",
          "img": "/images/1668-011-{size}.webp",
          "parent_id": "1668"
        },
        "geometry": {
          "type": "Point",
          "coordinates": [
            59.3134861111,
            35.9998861111
          ]
        }
      },
      {
        "type": "Feature",
        "properties": {
          "name": "Sheikhali Khān",
          "ref": "1668-012",
          "img": "/images/1668-012-{size}.webp",
          "parent_id": "1668"
        },
        "geometry": {
          "type": "Point",
          "coordinates": [
            51.3704027778,
            32.8681583334
          ]
        }
      },
      {
        "type": "Feature",
        "properties": {
          "name": "Robāt-e Sharaf",
          "ref": "1668-005",
          "img": "/images/1668-005-{size}.webp",
          "parent_id": "1668"
        },
        "geometry": {
          "type": "Point",
          "coordinates": [
            60.6551611111,
            36.2665694444
          ]
        }
      },
      {
        "type": "Feature",
        "properties": {
          "name": "Saʿadossaltaneh",
          "ref": "1668-054",
          "img": "/images/1668-054-{size}.webp",
          "parent_id": "1668"
        },
        "geometry": {
          "type": "Point",
          "coordinates": [
            50.0007083333,
            36.2692944445
          ]
        }
      },
      {
        "type": "Feature",
        "properties": {
          "name": "Abbās Ābād Tāybād",
          "ref": "1668-008",
          "img": "/images/1668-008-{size}.webp",
          "parent_id": "1668"
        },
        "geometry": {
          "type": "Point",
          "coordinates": [
            60.7183666667,
            34.9959361111
          ]
        }
      }
    ]
  },
  "1716": {
    "type": "FeatureCollection",
    "features": [
      {
        "type": "Feature",
        "properties": {
          "name": "Hegmataneh",
          "ref": "1716",
          "parent_id": "1716"
        },
        "geometry": {
          "type": "Point",
          "coordinates": [
            48.5183333334,
            34.8035555556
          ]
        }
      }
    ]
  },
  "1744": {
    "type": "FeatureCollection",
    "features": [
      {
        "type": "Feature",
        "properties": {
          "name": "Kunji Cave",
          "ref": "1744-005",
          "img": "/images/whc-unesco-org/220600-{size}.webp",
          "parent_id": "1744"
        },
        "geometry": {
          "type": "Point",
          "coordinates": [
            48.3566861111,
            33.4426277777
          ]
        }
      },
      {
        "type": "Feature",
        "properties": {
          "name": "Kaldar Cave",
          "ref": "1744-001",
          "img": "/images/whc-unesco-org/219756-{size}.webp",
          "parent_id": "1744"
        },
        "geometry": {
          "type": "Point",
          "coordinates": [
            48.2926361111,
            33.5573166667
          ]
        }
      },
      {
        "type": "Feature",
        "properties": {
          "name": "Yafteh Cave",
          "ref": "1744-004",
          "img": "/images/whc-unesco-org/219758-{size}.webp",
          "parent_id": "1744"
        },
        "geometry": {
          "type": "Point",
          "coordinates": [
            48.2114555556,
            33.5082666667
          ]
        }
      },
      {
        "type": "Feature",
        "properties": {
          "name": "Ghamari Cave",
          "ref": "1744-002",
          "img": "/images/whc-unesco-org/219760-{size}.webp",
          "parent_id": "1744"
        },
        "geometry": {
          "type": "Point",
          "coordinates": [
            48.3455722222,
            33.4921083333
          ]
        }
      },
      {
        "type": "Feature",
        "properties": {
          "name": "Gilvaran Cave",
          "ref": "1744-003",
          "img": "/images/whc-unesco-org/220601-{size}.webp",
          "parent_id": "1744"
        },
        "geometry": {
          "type": "Point",
          "coordinates": [
            48.3156111111,
            33.4700944445
          ]
        }
      },
      {
        "type": "Feature",
        "properties": {
          "name": "Gar Arjeneh Rock-shelter",
          "ref": "1744-006",
          "img": "/images/whc-unesco-org/219754-{size}.webp",
          "parent_id": "1744"
        },
        "geometry": {
          "type": "Point",
          "coordinates": [
            48.3393444444,
            33.4418472222
          ]
        }
      }
    ]
  }
}